[
  {
    "FlightNumber": "SK101",
    "Airline": "SAS",
    "FromName": "Copenhagen Airport",
    "FromCountry": "Denmark",
    "FromLatitude": 55.618,
    "FromLongitude": 12.656,
    "From": "CPH",
    "To": "LHR",
    "ToName": "London Heathrow Airport",
    "ToCountry": "United Kingdom",
    "ToLatitude": 51.47,
    "ToLongitude": -0.4543,
    "DepartureUtc": "2026-04-22T06:20:00Z",
    "AircraftType": "Airbus A320neo",
    "Status": "Scheduled"
  },
  {
    "FlightNumber": "SK102",
    "Airline": "SAS",
    "FromName": "Copenhagen Airport",
    "FromCountry": "Denmark",
    "FromLatitude": 55.618,
    "FromLongitude": 12.656,
    "From": "CPH",
    "To": "FRA",
    "ToName": "Frankfurt Airport",
    "ToCountry": "Germany",
    "ToLatitude": 50.0379,
    "ToLongitude": 8.5622,
    "DepartureUtc": "2026-04-22T10:30:00Z",
    "AircraftType": "Airbus A320",
    "Status": "Boarding"
  },
  {
    "FlightNumber": "SK103",
    "Airline": "SAS",
    "FromName": "Copenhagen Airport",
    "FromCountry": "Denmark",
    "FromLatitude": 55.618,
    "FromLongitude": 12.656,
    "From": "CPH",
    "To": "AMS",
    "ToName": "Amsterdam Schiphol Airport",
    "ToCountry": "Netherlands",
    "ToLatitude": 52.3105,
    "ToLongitude": 4.7683,
    "DepartureUtc": "2026-04-22T13:10:00Z",
    "AircraftType": "Airbus A320neo",
    "Status": "Delayed"
  },
  {
    "FlightNumber": "D8321",
    "Airline": "Norwegian",
    "FromName": "Copenhagen Airport",
    "FromCountry": "Denmark",
    "FromLatitude": 55.618,
    "FromLongitude": 12.656,
    "From": "CPH",
    "To": "OSL",
    "ToName": "Oslo Gardermoen Airport",
    "ToCountry": "Norway",
    "ToLatitude": 60.1976,
    "ToLongitude": 11.1004,
    "DepartureUtc": "2026-04-22T18:45:00Z",
    "AircraftType": "Boeing 737-800",
    "Status": "Scheduled"
  },
  {
    "FlightNumber": "LH456",
    "Airline": "Lufthansa",
    "FromName": "Copenhagen Airport",
    "FromCountry": "Denmark",
    "FromLatitude": 55.618,
    "FromLongitude": 12.656,
    "From": "CPH",
    "To": "MUC",
    "ToName": "Munich Airport",
    "ToCountry": "Germany",
    "ToLatitude": 48.3538,
    "ToLongitude": 11.7861,
    "DepartureUtc": "2026-04-22T21:15:00Z",
    "AircraftType": "Airbus A321",
    "Status": "Scheduled"
  },
  {
    "FlightNumber": "BA811",
    "Airline": "British Airways",
    "FromName": "London Heathrow Airport",
    "FromCountry": "United Kingdom",
    "FromLatitude": 51.47,
    "FromLongitude": -0.4543,
    "From": "LHR",
    "To": "CPH",
    "ToName": "Copenhagen Airport",
    "ToCountry": "Denmark",
    "ToLatitude": 55.618,
    "ToLongitude": 12.656,
    "DepartureUtc": "2026-04-22T07:40:00Z",
    "AircraftType": "Airbus A320",
    "Status": "Scheduled"
  },
  {
    "FlightNumber": "BA812",
    "Airline": "British Airways",
    "FromName": "London Heathrow Airport",
    "FromCountry": "United Kingdom",
    "FromLatitude": 51.47,
    "FromLongitude": -0.4543,
    "From": "LHR",
    "To": "FRA",
    "ToName": "Frankfurt Airport",
    "ToCountry": "Germany",
    "ToLatitude": 50.0379,
    "ToLongitude": 8.5622,
    "DepartureUtc": "2026-04-22T12:20:00Z",
    "AircraftType": "Airbus A320neo",
    "Status": "Delayed"
  },
  {
    "FlightNumber": "LH901",
    "Airline": "Lufthansa",
    "FromName": "Frankfurt Airport",
    "FromCountry": "Germany",
    "FromLatitude": 50.0379,
    "FromLongitude": 8.5622,
    "From": "FRA",
    "To": "CPH",
    "ToName": "Copenhagen Airport",
    "ToCountry": "Denmark",
    "ToLatitude": 55.618,
    "ToLongitude": 12.656,
    "DepartureUtc": "2026-04-22T05:55:00Z",
    "AircraftType": "Airbus A321",
    "Status": "Departed"
  },
  {
    "FlightNumber": "LH902",
    "Airline": "Lufthansa",
    "FromName": "Frankfurt Airport",
    "FromCountry": "Germany",
    "FromLatitude": 50.0379,
    "FromLongitude": 8.5622,
    "From": "FRA",
    "To": "MAD",
    "ToName": "Adolfo Suarez Madrid-Barajas Airport",
    "ToCountry": "Spain",
    "ToLatitude": 40.4983,
    "ToLongitude": -3.5676,
    "DepartureUtc": "2026-04-22T15:35:00Z",
    "AircraftType": "Airbus A320",
    "Status": "Scheduled"
  },
  {
    "FlightNumber": "KL1145",
    "Airline": "KLM",
    "FromName": "Amsterdam Schiphol Airport",
    "FromCountry": "Netherlands",
    "FromLatitude": 52.3105,
    "FromLongitude": 4.7683,
    "From": "AMS",
    "To": "CPH",
    "ToName": "Copenhagen Airport",
    "ToCountry": "Denmark",
    "ToLatitude": 55.618,
    "ToLongitude": 12.656,
    "DepartureUtc": "2026-04-22T09:10:00Z",
    "AircraftType": "Boeing 737-800",
    "Status": "Scheduled"
  },
  {
    "FlightNumber": "KL1146",
    "Airline": "KLM",
    "FromName": "Amsterdam Schiphol Airport",
    "FromCountry": "Netherlands",
    "FromLatitude": 52.3105,
    "FromLongitude": 4.7683,
    "From": "AMS",
    "To": "OSL",
    "ToName": "Oslo Gardermoen Airport",
    "ToCountry": "Norway",
    "ToLatitude": 60.1976,
    "ToLongitude": 11.1004,
    "DepartureUtc": "2026-04-22T17:55:00Z",
    "AircraftType": "Boeing 737 MAX 8",
    "Status": "Cancelled"
  },
  {
    "FlightNumber": "IB3120",
    "Airline": "Iberia",
    "FromName": "Adolfo Suarez Madrid-Barajas Airport",
    "FromCountry": "Spain",
    "FromLatitude": 40.4983,
    "FromLongitude": -3.5676,
    "From": "MAD",
    "To": "LHR",
    "ToName": "London Heathrow Airport",
    "ToCountry": "United Kingdom",
    "ToLatitude": 51.47,
    "ToLongitude": -0.4543,
    "DepartureUtc": "2026-04-22T08:25:00Z",
    "AircraftType": "Airbus A321",
    "Status": "Departed"
  },
  {
    "FlightNumber": "IB3121",
    "Airline": "Iberia",
    "FromName": "Adolfo Suarez Madrid-Barajas Airport",
    "FromCountry": "Spain",
    "FromLatitude": 40.4983,
    "FromLongitude": -3.5676,
    "From": "MAD",
    "To": "CPH",
    "ToName": "Copenhagen Airport",
    "ToCountry": "Denmark",
    "ToLatitude": 55.618,
    "ToLongitude": 12.656,
    "DepartureUtc": "2026-04-22T14:50:00Z",
    "AircraftType": "Airbus A320neo",
    "Status": "Scheduled"
  },
  {
    "FlightNumber": "DY511",
    "Airline": "Norwegian",
    "FromName": "Oslo Gardermoen Airport",
    "FromCountry": "Norway",
    "FromLatitude": 60.1976,
    "FromLongitude": 11.1004,
    "From": "OSL",
    "To": "CPH",
    "ToName": "Copenhagen Airport",
    "ToCountry": "Denmark",
    "ToLatitude": 55.618,
    "ToLongitude": 12.656,
    "DepartureUtc": "2026-04-22T11:05:00Z",
    "AircraftType": "Boeing 737-800",
    "Status": "Boarding"
  },
  {
    "FlightNumber": "DY512",
    "Airline": "Norwegian",
    "FromName": "Oslo Gardermoen Airport",
    "FromCountry": "Norway",
    "FromLatitude": 60.1976,
    "FromLongitude": 11.1004,
    "From": "OSL",
    "To": "AMS",
    "ToName": "Amsterdam Schiphol Airport",
    "ToCountry": "Netherlands",
    "ToLatitude": 52.3105,
    "ToLongitude": 4.7683,
    "DepartureUtc": "2026-04-22T20:15:00Z",
    "AircraftType": "Boeing 737 MAX 8",
    "Status": "Scheduled"
  }
]
